{"type":"FeatureCollection","features":[{"type":"Feature","properties":{"Name":"Reply Cafe","Address":"Address: 637B Bay St., Toronto, ON M5G 1M7"},"geometry":{"coordinates":[-79.38383988267856,43.65691200061639],"type":"Point"},"id":0},{"type":"Feature","properties":{"Name":"Daon café","Address":"475 Yonge St, Toronto, ON M4Y 1X4"},"geometry":{"coordinates":[-79.38299288877137,43.66254688759901],"type":"Point"},"id":1},{"type":"Feature","properties":{"Name":"Cafe La_On","Address":"453 Dundas St W Main Floor, Toronto, ON M5T 1G8"},"geometry":{"coordinates":[-79.39635376946252,43.65316972439851],"type":"Point"},"id":2},{"type":"Feature","properties":{"Name":"LA LA Bakeshop","Address":"761 Bay St. Unit 2, Toronto, ON M5G 2R3"},"geometry":{"coordinates":[-79.3850252608457,43.65960902989869],"type":"Point"},"id":3},{"type":"Feature","properties":{"Name":"Light Cafe","Address":"23 Baldwin Street - Floor Unit, Toronto, ON M5T 1L1"},"geometry":{"coordinates":[-79.39304594270621,43.6559399045762],"type":"Point"},"id":4},{"type":"Feature","properties":{"Name":"Icha Tea","Address":"235 Spadina Ave. Unit 4, Toronto, ON M5T 2E2"},"geometry":{"coordinates":[-79.39699980697995,43.65141073521207],"type":"Point"},"id":5},{"type":"Feature","properties":{"Name":"The Oats Kafe","Address":"31 Phipps St Unit 2, Toronto, ON M5S 3C4"},"geometry":{"coordinates":[-79.38661685068313,43.665064908858085],"type":"Point"},"id":6},{"type":"Feature","properties":{"Name":"Bloom Cafe","Address":"596 Yonge St, Toronto, ON M4Y 1Z3"},"geometry":{"coordinates":[-79.3850092243633,43.66548482707816],"type":"Point"},"id":7},{"type":"Feature","properties":{"Name":"Nabulu Cafe","Address":"6 St Joseph St, Toronto, ON M4Y 1J7"},"geometry":{"coordinates":[-79.3856397844853,43.666100018051736],"type":"Point"},"id":8},{"type":"Feature","properties":{"Name":"Lost in Tokyo Café & Bar","Address":"636 Queen St W, Toronto, ON M6J 1E4"},"geometry":{"coordinates":[-79.406261972849,43.647009009155056],"type":"Point"},"id":9}]}